City_ID,City,Lat,Lng,Max Temp,Humidity,Cloudiness,Wind Speed,Country,Date
0,dikson,73.5069,80.5464,-23.32,91,99,11.26,RU,1674438738
1,rikitea,-23.1203,-134.9692,26.44,76,5,6.78,PF,1674438739
2,morgan city,29.6994,-91.2068,11.0,82,0,2.06,US,1674438551
3,ribeira grande,38.5167,-28.7,16.54,84,2,10.28,PT,1674438739
4,cape town,-33.9258,18.4232,22.43,74,0,3.6,ZA,1674438303
5,fairbanks,64.8378,-147.7164,-27.02,73,100,0.0,US,1674438600
6,hobart,-42.8794,147.3294,26.14,52,20,4.63,AU,1674438018
7,butaritari,3.0707,172.7902,27.13,75,95,5.36,KI,1674438742
8,bluff,-46.6,168.3333,13.9,57,66,4.84,NZ,1674438743
9,tsybli,49.9948,31.5628,-1.48,83,23,3.21,UA,1674438743
10,busselton,-33.65,115.3333,29.98,35,0,1.0,AU,1674438647
11,jaguey grande,22.5269,-81.1286,20.5,91,4,1.78,CU,1674438744
12,qaanaaq,77.484,-69.3632,-33.61,68,95,3.36,GL,1674438745
13,ndjole,-0.1783,10.7649,23.21,99,80,0.9,GA,1674438746
14,mataura,-46.1927,168.8643,17.94,35,12,3.47,NZ,1674438746
15,iqaluit,63.7506,-68.5145,-20.15,77,100,9.26,CA,1674438747
16,mahajanga,-15.7167,46.3167,26.01,94,75,7.72,MG,1674438748
17,tuatapere,-46.1333,167.6833,15.22,52,9,3.85,NZ,1674438748
18,veraval,20.9,70.3667,15.17,55,9,5.97,IN,1674438749
19,deputatskiy,69.3,139.9,-39.19,100,76,1.43,RU,1674438749
20,kapaa,22.0752,-159.319,26.38,71,75,2.06,US,1674438750
21,shimanovsk,52.0,127.7,-30.62,87,100,3.4,RU,1674438750
22,albany,42.6001,-73.9662,0.65,90,100,0.75,US,1674438747
23,hit,33.6416,42.8251,11.16,50,0,2.61,IQ,1674438751
24,ilheus,-14.7889,-39.0494,26.9,89,40,2.06,BR,1674438752
25,malaya vishera,58.8454,32.2222,-10.39,98,87,1.74,RU,1674438752
26,dickinson,29.4608,-95.0513,13.97,56,0,4.12,US,1674438665
27,caravelas,-17.7125,-39.2481,25.74,87,100,4.3,BR,1674438753
28,bredasdorp,-34.5322,20.0403,18.52,90,2,2.17,ZA,1674438754
29,bethel,41.3712,-73.414,3.3,85,100,1.54,US,1674438754
30,geraldton,-28.7667,114.6,24.23,69,75,6.17,AU,1674438755
31,san juan del cesar,10.7711,-73.0031,28.53,76,0,2.66,CO,1674438756
32,port elizabeth,-33.918,25.5701,21.84,92,100,1.03,ZA,1674438756
33,hithadhoo,-0.6,73.0833,26.9,76,45,2.91,MV,1674438756
34,ostersund,63.1792,14.6357,-16.75,92,40,1.03,SE,1674438749
35,nikolskoye,59.7035,30.7861,-5.06,94,98,0.99,RU,1674438757
36,arraial do cabo,-22.9661,-42.0278,23.56,89,97,5.3,BR,1674438758
37,pleasanton,37.6624,-121.8747,13.41,36,0,5.66,US,1674438758
38,georgetown,5.4112,100.3354,27.96,82,20,2.57,MY,1674438603
39,doha,25.2867,51.5333,17.99,79,0,1.54,QA,1674438759
40,helong,42.5397,128.9972,-13.67,73,100,1.71,CN,1674438760
41,port alfred,-33.5906,26.891,21.21,96,62,3.59,ZA,1674438760
42,tahlequah,35.9154,-94.97,3.6,75,100,3.6,US,1674438761
43,jabinyanah,35.035,10.9081,6.52,70,4,5.1,TN,1674438761
44,punta arenas,-53.15,-70.9167,13.06,47,0,1.03,CL,1674438569
45,touros,-5.1989,-35.4608,26.43,79,10,4.88,BR,1674438762
46,grand gaube,-20.0064,57.6608,25.22,86,100,4.24,MU,1674438762
47,mar del plata,-38.0023,-57.5575,19.97,82,0,4.92,AR,1674438763
48,souillac,-20.5167,57.5167,25.21,94,75,1.03,MU,1674438763
49,atuona,-9.8,-139.0333,26.09,79,100,8.59,PF,1674438571
50,flin flon,54.7682,-101.865,-1.8,88,100,5.93,CA,1674438764
51,jamestown,42.097,-79.2353,0.01,75,100,0.45,US,1674438765
52,madang,-5.2246,145.7966,27.31,81,100,0.79,PG,1674438765
53,tessalit,20.1986,1.0114,17.53,15,0,4.25,ML,1674438766
54,cidreira,-30.1811,-50.2056,23.48,89,0,2.99,BR,1674438766
55,hasaki,35.7333,140.8333,4.22,88,100,7.18,JP,1674438767
56,talnakh,69.4865,88.3972,-26.1,97,98,0.78,RU,1674438767
57,poum,-20.2333,164.0167,26.87,78,100,0.98,NC,1674438768
58,kiama,-34.6833,150.8667,24.03,66,57,3.67,AU,1674438560
59,laguna,38.421,-121.4238,12.1,45,0,9.77,US,1674438768
60,mae tha,18.4646,99.1403,23.69,55,0,0.65,TH,1674438769
61,lorengau,-2.0226,147.2712,28.86,76,70,4.86,PG,1674438769
62,usoke,-5.1667,32.35,17.05,96,100,1.81,TZ,1674438770
63,tangkak,2.2673,102.5453,25.65,99,100,1.83,MY,1674438770
64,yumen,40.2833,97.2,-16.71,47,2,0.64,CN,1674438771
65,severodvinsk,64.5635,39.8302,-7.94,88,19,3.62,RU,1674438771
66,wanning,18.8003,110.3967,22.81,89,100,1.7,CN,1674438772
67,bengkulu,-3.8004,102.2655,22.92,96,100,2.01,ID,1674438772
68,tilichiki,60.4667,166.1,-10.15,65,100,9.41,RU,1674438773
69,faya,18.3851,42.4509,9.06,68,0,0.76,SA,1674438773
70,faanui,-16.4833,-151.75,26.0,72,89,1.68,PF,1674438774
71,kualakapuas,-3.0091,114.3876,28.08,78,100,0.8,ID,1674438775
72,portland,45.5234,-122.6762,7.57,84,100,0.89,US,1674438414
73,port hedland,-20.3167,118.5667,33.03,49,40,2.06,AU,1674438775
74,tuktoyaktuk,69.4541,-133.0374,-16.0,85,100,3.6,CA,1674438776
75,yerbogachen,61.2767,108.0108,-39.77,98,96,3.03,RU,1674438776
76,koumac,-20.5667,164.2833,28.12,75,100,2.58,NC,1674438777
77,port blair,11.6667,92.75,23.02,88,40,0.0,IN,1674438777
78,montbrison,45.6667,4.0833,-0.79,95,100,4.14,FR,1674438778
79,beloha,-25.1667,45.05,23.92,83,100,7.04,MG,1674438778
80,bathsheba,13.2167,-59.5167,26.34,78,40,10.29,BB,1674438779
81,saint-philippe,-21.3585,55.7679,23.77,86,100,1.4,RE,1674438779
82,hermanus,-34.4187,19.2345,20.45,88,0,3.22,ZA,1674438780
83,manavalakurichi,8.1333,77.3,24.11,72,79,2.07,IN,1674438780
84,kutum,14.2,24.6667,13.89,17,0,1.9,SD,1674438781
85,narasannapeta,18.4167,84.05,19.93,68,19,2.05,IN,1674438781
86,puerto ayora,-0.7393,-90.3518,23.64,96,45,0.89,EC,1674438782
87,tasiilaq,65.6145,-37.6368,-15.5,59,11,3.17,GL,1674438783
88,wajid,3.8093,43.2471,23.34,68,0,7.63,SO,1674438783
89,vaini,-21.2,-175.2,31.09,74,20,3.09,TO,1674438784
90,east london,-33.0153,27.9116,22.51,86,100,0.34,ZA,1674438784
91,riihimaki,60.7377,24.7773,-4.25,100,100,2.16,FI,1674438786
92,provideniya,64.3833,-173.3,-18.94,60,75,13.0,RU,1674438787
93,louis trichardt,-23.0439,29.9032,18.13,91,95,4.52,ZA,1674438787
94,zaysan,47.4667,84.8667,-25.82,73,0,1.15,KZ,1674438788
95,castro,-24.7911,-50.0119,17.56,97,100,0.59,BR,1674438676
96,bambous virieux,-20.3428,57.7575,25.14,94,75,1.03,MU,1674438789
97,cherskiy,68.75,161.3,-35.82,96,100,1.43,RU,1674438789
98,hilo,19.7297,-155.09,27.93,79,20,4.12,US,1674438637
99,kruisfontein,-34.0033,24.7314,19.94,95,5,1.71,ZA,1674438790
100,carnarvon,-24.8667,113.6333,26.39,65,69,6.91,AU,1674438791
101,ushuaia,-54.8,-68.3,9.81,66,0,2.57,AR,1674438791
102,martapura,-3.4167,114.85,26.05,89,20,1.54,ID,1674438628
103,sur,22.5667,59.5289,18.78,46,0,5.33,OM,1674438792
104,burnie,-41.0667,145.9167,21.64,70,6,4.06,AU,1674438793
105,amarante do maranhao,-5.5667,-46.7422,21.51,97,96,0.4,BR,1674438794
106,ponta do sol,32.6667,-17.1,17.35,55,46,3.69,PT,1674438794
107,waitati,-45.75,170.5667,17.67,45,9,4.48,NZ,1674438795
108,nola,40.922,14.5329,6.23,87,100,1.83,IT,1674438796
109,richards bay,-28.783,32.0377,21.59,93,19,1.94,ZA,1674438797
110,pomabamba,-8.8333,-77.4667,10.38,87,88,1.36,PE,1674438797
111,thompson,55.7435,-97.8558,-9.91,92,100,6.69,CA,1674438798
112,la ronge,55.1001,-105.2842,-2.86,74,100,7.2,CA,1674438799
113,mayo,38.8876,-76.5119,5.06,92,100,3.6,US,1674438799
114,chokurdakh,70.6333,147.9167,-44.11,100,66,1.73,RU,1674438800
115,santa marta,11.2408,-74.199,29.03,68,20,6.26,CO,1674438800
116,saldanha,-33.0117,17.9442,17.03,91,0,5.14,ZA,1674438801
117,mahebourg,-20.4081,57.7,25.16,94,75,1.03,MU,1674438802
118,cockburn town,21.4612,-71.1419,25.4,76,46,9.32,TC,1674438802
119,loukhi,66.0764,33.0381,-6.96,82,37,4.89,RU,1674438803
120,preobrazheniye,42.9019,133.9064,-7.89,84,100,2.33,RU,1674438804
121,bendigo,-36.7667,144.2833,29.1,29,1,1.48,AU,1674438804
122,necochea,-38.5473,-58.7368,17.13,87,0,3.38,AR,1674438805
123,phan thiet,10.9333,108.1,28.44,60,11,1.71,VN,1674438806
124,sao felix do xingu,-6.6447,-51.995,21.98,98,100,0.38,BR,1674438806
125,yarada,17.65,83.2667,18.18,100,20,1.03,IN,1674438807
126,paita,-5.0892,-81.1144,21.75,84,15,3.09,PE,1674438807
127,beringovskiy,63.05,179.3167,-21.92,95,100,6.98,RU,1674438808
128,urucara,-2.5364,-57.76,22.9,97,69,0.68,BR,1674438808
129,hoa binh,20.8133,105.3383,19.1,82,100,0.37,VN,1674438809
130,esperance,-33.8667,121.9,24.58,46,0,4.07,AU,1674438809
131,sept-iles,50.2001,-66.3821,-7.0,74,75,2.57,CA,1674438764
132,cacapava do sul,-30.5122,-53.4914,23.21,56,41,4.14,BR,1674438810
133,kaitangata,-46.2817,169.8464,17.48,43,13,5.1,NZ,1674438811
134,abha,18.2164,42.5053,8.9,81,0,0.0,SA,1674438684
135,yellowknife,62.456,-114.3525,-28.57,96,52,2.03,CA,1674438650
136,la rioja,42.25,-2.5,-0.12,91,100,4.18,ES,1674438765
137,new norfolk,-42.7826,147.0587,24.95,31,1,1.28,AU,1674438812
138,aleksandrov gay,50.147,48.5704,-7.15,63,10,2.99,RU,1674438812
139,takoradi,4.8845,-1.7554,26.36,85,32,3.01,GH,1674438813
140,peniche,39.3558,-9.3811,6.92,73,3,5.06,PT,1674438814
141,asau,46.4333,26.4,2.51,96,93,0.87,RO,1674438814
142,boueni,-12.9025,45.0761,27.99,80,96,8.57,YT,1674438815
143,norman wells,65.282,-126.8329,-24.98,84,40,1.03,CA,1674438815
144,bubaque,11.2833,-15.8333,23.12,71,0,8.02,GW,1674438816
145,kindu,-2.95,25.95,19.55,99,100,0.3,CD,1674438816
146,ayagoz,47.9714,80.4392,-24.96,80,9,2.16,KZ,1674438817
147,vila franca do campo,37.7167,-25.4333,14.23,88,22,5.29,PT,1674438817
148,tiznit,29.5833,-9.5,12.28,44,0,1.61,MA,1674438817
149,krasnoselkup,65.7,82.4667,-22.76,96,98,6.11,RU,1674438818
150,oyem,1.5995,11.5793,20.1,91,87,1.18,GA,1674438819
151,puerto carreno,6.189,-67.4859,26.34,62,92,4.36,CO,1674438819
152,lagoa,39.05,-27.9833,15.18,81,3,9.95,PT,1674438820
153,rincon,32.296,-81.2354,16.59,93,75,11.83,US,1674438820
154,rahuri,19.3833,74.65,15.92,53,7,1.09,IN,1674438616
155,basoko,1.2391,23.616,22.57,59,100,1.45,CD,1674438821
156,barrow,71.2906,-156.7887,-20.04,97,100,5.94,US,1674438821
157,waki,34.0667,134.15,4.45,95,100,1.54,JP,1674438822
158,fortuna,40.5982,-124.1573,9.43,80,0,4.63,US,1674438822
159,port lincoln,-34.7333,135.8667,20.63,67,100,4.68,AU,1674438823
160,qasigiannguit,68.8193,-51.1922,-12.27,95,100,1.89,GL,1674438823
161,san quintin,30.4833,-115.95,13.18,73,5,3.36,MX,1674438824
162,toyooka,35.5333,134.8333,5.03,100,75,3.09,JP,1674438824
163,thinadhoo,0.5333,72.9333,26.71,76,27,2.75,MV,1674438825
164,awjilah,29.1081,21.2869,11.4,49,0,3.51,LY,1674438825
165,upernavik,72.7868,-56.1549,-28.1,71,100,5.5,GL,1674438826
166,maniitsoq,65.4167,-52.9,-4.55,94,100,6.34,GL,1674438826
167,gravina in puglia,40.8197,16.4228,3.79,98,100,1.4,IT,1674438827
168,mount isa,-20.7333,139.5,34.87,12,99,3.6,AU,1674438827
169,suntar,62.1444,117.6319,-31.7,88,100,5.09,RU,1674438828
170,port-gentil,-0.7193,8.7815,27.2,78,67,4.41,GA,1674438828
171,garango,11.8,-0.5506,25.49,17,0,2.41,BF,1674438828
172,broome,42.2506,-75.833,0.95,90,100,3.09,US,1674438829
173,erenhot,43.6475,111.9767,-23.78,53,22,4.41,CN,1674438577
174,vardo,70.3705,31.1107,-1.01,74,78,10.8,NO,1674438830
175,kulhudhuffushi,6.6221,73.07,26.45,72,73,2.64,MV,1674438830
176,walvis bay,-22.9575,14.5053,18.13,88,99,3.04,NA,1674438831
177,nara,34.6851,135.8049,4.72,69,86,0.36,JP,1674438831
178,amapa,1.0,-52.0,21.63,99,83,1.31,BR,1674438832
179,comodoro rivadavia,-45.8667,-67.5,15.92,63,0,5.66,AR,1674438832
180,lauf,48.65,8.1333,0.38,89,100,4.63,DE,1674438833
181,cabedelo,-6.9811,-34.8339,26.37,81,12,4.72,BR,1674438833
182,mgandu,-5.95,34.1333,14.63,95,98,0.73,TZ,1674438834
183,hofn,64.2539,-15.2082,-0.46,56,93,5.41,IS,1674438834
184,potiskum,11.7091,11.0694,19.5,21,83,3.57,NG,1674438835
185,trincomalee,8.5711,81.2335,25.64,84,96,5.69,LK,1674438835
186,pahrump,36.2083,-115.9839,6.81,24,1,10.28,US,1674438836
187,staryy nadym,65.6118,72.6842,-8.23,96,99,4.22,RU,1674438836
188,papagaios,-19.4492,-44.7478,19.91,94,100,1.45,BR,1674438836
189,abu samrah,35.3029,37.1841,8.32,77,0,1.52,SY,1674438837
190,waounde,15.2637,-12.8682,24.83,21,0,3.3,SN,1674438837
191,avera,33.194,-82.5271,7.73,95,100,1.46,US,1674438838
192,nurota,40.5614,65.6886,-6.38,81,98,1.91,UZ,1674438839
193,samarina,57.8878,27.8054,-3.06,98,83,1.38,RU,1674438839
194,rio grande,-32.035,-52.0986,22.45,82,0,2.4,BR,1674438840
195,namibe,-15.1961,12.1522,22.34,82,100,2.67,AO,1674438840
196,leninskoye,41.7589,69.3864,-13.0,79,4,2.37,KZ,1674438840
197,acapulco,16.8634,-99.8901,24.17,78,0,2.72,MX,1674438416
198,terrace,54.5163,-128.6035,0.95,93,100,3.6,CA,1674438702
199,saint-augustin,51.226,-58.6502,-8.14,88,100,4.09,CA,1674438842
200,den helder,52.9599,4.7593,3.32,88,100,3.13,NL,1674438743
201,ust-ilimsk,58.0006,102.6619,-38.8,96,84,1.41,RU,1674438843
202,bowen,-20.0167,148.2333,27.89,64,9,6.05,AU,1674438843
203,sabha,27.0377,14.4283,10.43,26,0,2.51,LY,1674438844
204,saskylakh,71.9167,114.0833,-32.49,87,100,1.04,RU,1674438845
205,camacha,33.0833,-16.3333,15.68,59,40,7.2,PT,1674438846
206,pedasi,7.5333,-80.0333,25.04,80,7,2.05,PA,1674438846
207,canutama,-6.5339,-64.3831,22.8,96,98,0.83,BR,1674438847
208,khatanga,71.9667,102.5,-41.79,97,19,1.49,RU,1674438848
209,kodiak,57.79,-152.4072,1.61,99,100,6.18,US,1674438849
210,lavrentiya,65.5833,-171.0,-28.77,94,70,5.37,RU,1674438850
211,evensk,61.95,159.2333,-15.48,89,100,12.35,RU,1674438850
212,meulaboh,4.1363,96.1285,23.93,91,83,0.91,ID,1674438851
213,victoria,22.2855,114.1577,20.58,85,11,1.79,HK,1674438707
214,saint george,37.1041,-113.5841,3.02,41,100,9.77,US,1674438853
215,praia,14.9215,-23.5087,20.7,67,3,5.25,CV,1674438641
216,vozhega,60.4725,40.2213,-8.83,99,96,1.55,RU,1674438854
217,ochamchira,42.7121,41.4721,6.62,53,0,3.09,GE,1674438855
218,ossora,59.2353,163.0719,-14.49,95,100,2.78,RU,1674438856
219,ilinskiy,55.619,38.1182,-3.79,93,100,3.0,RU,1674438856
220,ola,59.5833,151.2833,-24.28,81,53,4.1,RU,1674438721
221,muncar,-8.4333,114.3333,28.12,65,20,0.04,ID,1674438858
222,kawalu,-7.3817,108.2082,27.16,73,99,0.5,ID,1674438859
223,avarua,-21.2078,-159.775,26.03,89,75,1.03,CK,1674438604
224,bambanglipuro,-7.95,110.2833,28.31,73,67,3.88,ID,1674438861
225,primorsk,46.7348,36.3443,0.23,86,100,7.74,UA,1674438861
226,salinopolis,-0.6136,-47.3561,24.91,89,62,5.11,BR,1674438862
227,clyde river,70.4692,-68.5914,-31.87,68,100,11.32,CA,1674438863
228,svetlyy,54.675,20.1347,-0.97,87,7,3.02,RU,1674438864
229,katsuura,35.1333,140.3,7.75,89,100,7.55,JP,1674438865
230,gumdag,39.2061,54.5906,-2.2,59,0,4.91,TM,1674438866
231,road town,18.4167,-64.6167,26.02,69,40,4.63,VG,1674438866
232,rantepao,-2.9701,119.8978,25.9,69,100,0.66,ID,1674438867
233,namie,37.4833,141.0,3.73,62,100,1.14,JP,1674438868
234,sambava,-14.2667,50.1667,24.06,82,100,1.8,MG,1674438869
235,kushima,31.4583,131.2333,10.49,88,100,3.87,JP,1674438869
236,sorong,-0.8833,131.25,27.63,76,100,1.53,ID,1674438663
237,broken hill,-31.95,141.4333,29.58,24,2,3.67,AU,1674438870
238,hukuntsi,-24.0,21.75,27.51,26,100,4.7,BW,1674438871
239,kyakhta,50.3508,106.4494,-38.37,97,48,1.68,RU,1674438871
240,cherepovets,59.1333,37.9,-18.93,100,99,1.34,RU,1674438872
241,tigzirt,36.8886,4.1198,5.82,86,100,1.69,DZ,1674438872
242,kavaratti,10.5669,72.642,26.71,69,34,4.49,IN,1674438873
243,sao filipe,14.8961,-24.4956,20.92,64,24,4.96,CV,1674438873
244,severo-kurilsk,50.6789,156.125,-8.01,58,98,1.74,RU,1674438874
245,bestobe,52.4994,73.0975,-7.61,77,100,7.47,KZ,1674438874
246,yaan,7.3833,8.5667,25.6,18,36,1.49,NG,1674438875
247,batagay-alyta,67.8006,130.4114,-30.27,100,99,0.29,RU,1674438875
248,lompoc,34.6391,-120.4579,13.08,53,0,7.2,US,1674438586
249,shaunavon,49.6501,-108.4181,-2.12,89,89,7.96,CA,1674438876
250,coquimbo,-29.9533,-71.3436,16.85,88,20,3.09,CL,1674438797
251,pacific grove,36.6177,-121.9166,14.17,76,0,11.62,US,1674438300
252,qandala,11.472,49.8728,22.33,69,19,2.57,SO,1674438877
253,natal,-5.795,-35.2094,27.36,83,40,4.12,BR,1674438877
254,leshukonskoye,64.8989,45.7622,-9.59,92,59,3.49,RU,1674438878
255,kashi,39.4547,75.9797,-10.44,85,75,3.0,CN,1674438878
256,mangrol,21.1167,70.1167,14.95,56,1,6.51,IN,1674438879
257,torbay,47.6666,-52.7314,-4.35,91,20,7.2,CA,1674438879
258,tiksi,71.6872,128.8694,-31.21,97,100,2.42,RU,1674438880
259,goito,45.2549,10.6721,4.53,90,100,1.34,IT,1674438880
260,westport,41.1415,-73.3579,4.3,89,100,2.57,US,1674438749
261,bani walid,31.7566,13.9942,8.87,59,53,2.15,LY,1674438881
262,pisco,-13.7,-76.2167,23.03,73,0,4.63,PE,1674438882
263,murud,18.3258,72.965,18.48,65,6,1.89,IN,1674438552
264,sechenovo,55.2244,45.8906,-13.12,93,99,2.27,RU,1674438883
265,arman,59.7,150.1667,-24.05,82,12,3.75,RU,1674438883
266,pevek,69.7008,170.3133,-34.84,93,80,1.27,RU,1674438884
267,saint-georges,12.0564,-61.7485,24.82,88,20,7.72,GD,1674438704
268,vanavara,60.34,102.2797,-41.95,100,100,1.58,RU,1674438884
269,san ramon,37.7799,-121.978,12.96,37,31,0.89,US,1674438846
270,sant julia de loria,42.4625,1.4825,-4.3,87,26,4.54,AD,1674438885
271,dunedin,-45.8742,170.5036,17.67,45,5,4.92,NZ,1674438886
272,waipawa,-41.4122,175.5153,14.98,68,82,3.83,NZ,1674438886
273,rawson,-43.3002,-65.1023,15.85,71,6,5.87,AR,1674438887
274,rorvik,64.8621,11.2373,6.06,81,100,10.8,NO,1674438887
275,koutiala,12.3917,-5.4642,24.89,16,0,0.96,ML,1674438888
276,el tigre,8.8875,-64.2454,22.53,83,75,5.58,VE,1674438888
277,sheboygan,43.7333,-87.9334,-6.85,91,100,3.6,US,1674438220
278,labuhan,-6.8844,112.2051,27.73,75,92,2.0,ID,1674438889
279,lethem,3.3803,-59.7968,24.91,76,46,5.15,GY,1674438890
280,darhan,49.4867,105.9228,-35.37,93,7,2.64,MN,1674438890
281,harper,4.375,-7.7169,26.12,82,100,3.59,LR,1674438890
282,sorland,67.667,12.6934,5.92,79,64,15.57,NO,1674438891
283,xinqing,48.2333,129.5,-30.66,84,100,1.54,CN,1674438891
284,kaili,-3.4626,120.2147,24.95,70,100,1.03,ID,1674438892
285,luena,-11.7833,19.9167,15.95,95,100,3.5,AO,1674438892
286,khovu-aksy,51.1333,93.6,-29.39,94,100,2.43,RU,1674438893
287,keflavik,64.0049,-22.5624,0.95,64,75,5.66,IS,1674438893
288,tandur,17.2333,77.5833,18.55,83,31,2.13,IN,1674438894
289,shubarshi,48.5872,57.1869,-11.8,70,0,3.2,KZ,1674438894
290,mount gambier,-37.8333,140.7667,26.02,42,10,2.37,AU,1674438895
291,rocha,-34.4833,-54.3333,19.38,80,87,1.45,UY,1674438895
292,ostrovnoy,68.0531,39.5131,-4.0,81,57,11.71,RU,1674438896
293,husavik,66.0449,-17.3389,-5.0,62,20,5.12,IS,1674438896
294,koygorodok,60.445,50.9968,-12.63,100,100,0.88,RU,1674438897
295,bassano,50.7834,-112.4685,-2.73,84,5,4.34,CA,1674438897
296,cururupu,-1.8283,-44.8683,23.58,95,2,1.74,BR,1674438898
297,tuy hoa,13.0833,109.3,23.82,85,97,3.11,VN,1674438898
298,astana,51.1801,71.446,-17.03,71,0,5.0,KZ,1674438704
299,tartagal,-22.5164,-63.8013,21.55,96,100,2.44,AR,1674438899
300,yenagoa,4.9247,6.2642,25.26,86,11,1.06,NG,1674438899
301,pimentel,-6.8367,-79.9342,21.16,78,0,6.69,PE,1674438900
302,providencia,28.7167,-111.5833,15.11,49,0,3.64,MX,1674438900
303,ayabe,35.3,135.25,4.71,80,92,1.76,JP,1674438901
304,rajaldesar,28.0333,74.4667,13.13,56,82,4.33,IN,1674438901
305,dwarka,22.2394,68.9678,17.63,48,0,7.73,IN,1674438902
306,praia da vitoria,38.7333,-27.0667,15.98,72,75,6.7,PT,1674438904
307,moctezuma,29.8,-109.6667,12.57,26,0,2.78,MX,1674438906
308,fort nelson,58.8053,-122.7002,-8.23,93,75,1.03,CA,1674438906
309,padang,-0.9492,100.3543,24.03,89,100,1.34,ID,1674438907
310,galle,6.0367,80.217,24.15,85,99,2.36,LK,1674438678
311,hirara,24.8,125.2833,20.92,83,75,7.72,JP,1674438909
312,araouane,18.9048,-3.5265,17.96,14,0,4.7,ML,1674438910
313,clinton,42.587,-82.9199,0.18,90,92,2.14,US,1674438910
314,guerrero negro,27.9769,-114.0611,14.44,68,0,7.12,MX,1674438911
315,krasnyy chikoy,50.3643,108.7512,-35.63,96,66,1.33,RU,1674438912
316,maracacume,-2.0428,-45.9592,22.41,99,23,1.29,BR,1674438912
317,longyearbyen,78.2186,15.6401,2.91,81,75,6.17,SJ,1674438913
318,tabou,4.423,-7.3528,25.71,85,69,3.56,CI,1674438914
319,kavieng,-2.5744,150.7967,28.57,72,100,5.27,PG,1674438914
320,ancud,-41.8697,-73.8203,13.64,88,0,1.42,CL,1674438915
321,coihaique,-45.5752,-72.0662,16.34,48,20,1.54,CL,1674438916
322,wyndham,37.6985,-77.6125,5.67,90,100,1.34,US,1674438917
323,shache,38.4167,77.2406,-13.76,92,79,3.08,CN,1674438917
324,prince rupert,54.3161,-130.3201,3.83,97,100,13.38,CA,1674438918
325,progreso,21.2833,-89.6667,23.44,90,18,3.39,MX,1674438919
326,lambarene,-0.7001,10.2406,23.88,95,94,1.27,GA,1674438919
327,puri,19.8,85.85,17.29,75,66,2.53,IN,1674438920
328,novoseleznevo,55.6821,69.2056,-9.41,94,94,4.84,RU,1674438921
329,aykhal,66.0,111.5,-33.54,83,100,1.78,RU,1674438921
330,la romana,18.4273,-68.9728,24.2,83,40,2.06,DO,1674438922
331,koslan,63.4564,48.8989,-11.34,96,100,2.85,RU,1674438923
332,freetown,8.484,-13.2299,24.12,79,0,3.18,SL,1674438924
333,soyo,-6.1349,12.3689,25.81,84,100,0.92,AO,1674438926
334,kahului,20.8947,-156.47,26.58,75,37,2.68,US,1674438926
335,hambantota,6.1241,81.1185,23.19,100,40,2.06,LK,1674438927
336,dulce grande,23.0,-102.1667,13.99,23,8,4.89,MX,1674438928
337,sakakah,29.9697,40.2064,9.76,65,0,3.66,SA,1674438928
338,fukue,32.6881,128.8419,11.2,71,75,7.72,JP,1674438929
339,paamiut,61.994,-49.6678,-7.76,72,100,7.59,GL,1674438929
340,muravlenko,63.7898,74.523,-10.03,95,100,5.53,RU,1674438930
341,biloela,-24.4167,150.5,29.54,51,45,1.9,AU,1674438930
342,sinnamary,5.3833,-52.95,24.75,86,100,5.96,GF,1674438931
343,luanda,-8.8368,13.2343,26.0,83,20,1.03,AO,1674438745
344,ronne,55.1009,14.7066,0.95,93,100,1.03,DK,1674438932
345,cueto,20.6439,-75.9356,21.93,82,0,1.98,CU,1674438933
346,mutis,6.2262,-77.4044,24.61,89,32,2.0,CO,1674438933
347,bolshaya glushitsa,50.2406,43.5908,-6.93,86,92,3.3,RU,1674438934
348,nome,64.5011,-165.4064,-18.96,55,0,0.0,US,1674438718
349,asfi,32.2994,-9.2372,12.62,85,0,7.78,MA,1674438934
350,satuk,41.2263,32.3836,5.83,62,99,1.43,TR,1674438935
351,swakopmund,-22.6833,14.5333,18.1,89,100,2.73,NA,1674438935
352,galveston,29.3669,-94.9669,13.32,58,0,4.19,US,1674438936
353,makungu,-8.7333,35.2833,16.67,96,100,1.17,TZ,1674438936
354,sa kaeo,13.75,102.3333,26.39,43,30,2.22,TH,1674438937
355,terney,45.0503,136.6092,-15.16,58,100,3.93,RU,1674438938
356,aklavik,68.2191,-135.0107,-22.77,92,98,5.24,CA,1674438938
357,evanston,42.0411,-87.6901,0.06,88,100,3.6,US,1674438727
358,namatanai,-3.6667,152.4333,28.77,69,99,3.56,PG,1674438939
359,dareda,-4.2167,35.55,15.27,85,100,0.76,TZ,1674438939
360,hamilton,39.1834,-84.5333,1.47,93,100,2.06,US,1674438652
361,khorramshahr,30.4397,48.1664,9.98,100,20,0.0,IR,1674438940
362,cayenne,4.9333,-52.3333,26.02,78,75,3.6,GF,1674438940
363,wagar,16.1525,36.2032,21.91,74,14,4.65,SD,1674438941
364,bilma,18.6853,12.9164,18.7,15,20,3.01,NE,1674438941
365,charlestown,-32.95,151.6667,24.34,77,91,1.79,AU,1674438942
366,firozpur,30.9167,74.6,9.66,54,59,2.69,IN,1674438942
367,vestmannaeyjar,63.4427,-20.2734,1.95,56,100,7.38,IS,1674438943
368,kirakira,-10.4544,161.9205,29.24,71,93,2.93,SB,1674438943
369,adrar,20.5022,-10.0711,15.5,16,0,4.58,MR,1674438944
370,santa ana,33.7456,-117.8678,15.02,80,74,0.45,US,1674438907
371,batemans bay,-35.7167,150.1833,21.17,59,78,3.52,AU,1674438944
372,luau,-10.7073,22.2247,17.15,99,95,1.69,AO,1674438945
373,pokhara,28.2333,83.9833,13.36,18,0,2.91,NP,1674438945
374,rock springs,41.5875,-109.2029,-12.75,95,97,0.68,US,1674438890
375,korla,41.7597,86.1469,-13.34,71,1,2.07,CN,1674438946
376,iquitos,-3.7481,-73.2472,23.02,94,20,0.0,PE,1674438947
377,almaznyy,48.0448,40.045,-2.56,80,64,6.96,RU,1674438947
378,siderno,38.2779,16.302,5.74,82,14,3.06,IT,1674438947
379,nanortalik,60.1432,-45.2371,-5.64,61,100,2.13,GL,1674438948
380,ambatondrazaka,-17.8333,48.4167,19.4,97,100,3.31,MG,1674438948
381,muriwai beach,-36.8167,174.45,24.55,54,13,3.6,NZ,1674438778
382,amahai,-3.3333,128.9167,29.24,67,94,1.18,ID,1674438949
383,lom sak,16.7798,101.2422,23.36,47,4,0.0,TH,1674438950
384,at-bashi,41.1702,75.8106,-17.84,58,41,2.33,KG,1674438950
385,shinjo,38.7586,140.3008,-1.51,86,100,2.82,JP,1674438951
386,samana,19.2056,-69.3369,23.21,85,16,3.79,DO,1674438951
387,klaksvik,62.2266,-6.589,6.51,79,100,9.67,FO,1674438951
388,yulara,-25.2406,130.9889,34.05,13,0,5.68,AU,1674438952
389,olinda,-8.0089,-34.8553,27.85,74,40,3.6,BR,1674438952
390,sovetskaya gavan,48.9723,140.2878,-19.77,66,95,3.4,RU,1674438953
391,beyneu,45.3167,55.2,-4.02,52,0,4.43,KZ,1674438953
392,isla mujeres,21.2311,-86.731,25.65,78,1,5.29,MX,1674438954
393,tagusao,9.1924,117.8141,27.6,70,100,1.95,PH,1674438955
394,santa rosa,14.3122,121.1114,28.95,67,31,5.12,PH,1674438955
395,henties bay,-22.116,14.2845,18.47,87,98,1.75,NA,1674438956
396,isla vista,34.4133,-119.861,14.12,35,79,3.32,US,1674438956
397,umm kaddadah,13.6017,26.6876,15.44,15,0,4.96,SD,1674438956
398,belaya gora,68.5333,146.4167,-44.71,100,97,0.81,RU,1674438957
399,kewanee,41.2456,-89.9248,-1.4,85,100,3.38,US,1674438957
400,rongcheng,30.634,117.8517,5.76,93,100,1.92,CN,1674438958
401,grindavik,63.8424,-22.4338,0.97,64,75,5.66,IS,1674438958
402,tautira,-17.7333,-149.15,24.46,79,100,2.76,PF,1674438959
403,berezovyy,51.6667,135.7,-24.31,90,100,0.54,RU,1674438959
404,mehamn,71.0357,27.8492,3.97,52,20,10.8,NO,1674438960
405,huilong,31.8111,121.655,7.74,87,100,6.39,CN,1674438960
406,imeni babushkina,59.7573,43.1285,-21.69,100,100,0.66,RU,1674438961
407,iaciara,-14.0958,-46.6317,19.84,92,89,1.95,BR,1674438961
408,kisangani,0.5167,25.2,23.3,64,100,1.28,CD,1674438962
409,kjollefjord,70.9457,27.3465,3.9,52,20,10.8,NO,1674438963
410,bosaso,11.2842,49.1816,21.99,69,17,2.77,SO,1674438964
411,parana,-31.732,-60.5238,30.86,44,69,3.26,AR,1674438892
412,bitlis,38.5,42.25,-2.75,86,11,2.41,TR,1674438965
413,wapi pathum,15.8452,103.3768,25.59,32,17,2.17,TH,1674438966
414,simoes,-7.5989,-40.8178,22.62,80,94,0.46,BR,1674438967
415,hailey,43.5196,-114.3153,-10.61,80,12,2.24,US,1674438967
416,weligama,5.9667,80.4167,23.91,84,83,2.75,LK,1674438968
417,lexington,37.9887,-84.4777,2.91,86,100,0.89,US,1674438888
418,pravda,46.9396,142.009,-11.85,89,100,1.4,RU,1674438969
419,kalat,29.0225,66.5916,-3.87,60,0,1.98,PK,1674438969
420,komsomolskiy,40.4272,71.7189,-6.88,84,100,0.45,UZ,1674438970
421,zatoka,46.0725,30.4654,3.08,84,36,7.11,UA,1674438971
422,kijang,35.2442,129.2139,3.85,44,0,2.51,KR,1674438971
423,alice springs,-23.7,133.8833,32.75,40,17,3.6,AU,1674438972
424,stuttgart,48.7823,9.177,0.45,92,100,1.54,DE,1674438900
425,shahgarh,24.3167,79.1333,15.62,67,53,1.69,IN,1674438973
426,ahipara,-35.1667,173.1667,21.93,65,100,3.41,NZ,1674438973
427,ilulissat,69.2167,-51.1,-11.56,96,100,1.6,GL,1674438974
428,ust-tsilma,65.441,52.1498,-5.7,93,100,3.51,RU,1674438974
429,saraland,30.8207,-88.0706,11.26,86,3,1.85,US,1674438975
430,yeppoon,-23.1333,150.7333,29.88,62,45,4.36,AU,1674438976
431,zaranj,30.9667,61.8833,0.29,53,0,5.9,AF,1674438976
432,buala,-8.145,159.5921,30.61,61,75,2.84,SB,1674438977
433,porto novo,6.4965,2.6036,26.17,84,22,2.66,BJ,1674438978
434,mareeba,-17.0,145.4333,30.24,65,54,3.63,AU,1674438978
435,fuyang,32.9,115.8167,5.47,78,100,2.89,CN,1674438979
436,hobyo,5.3505,48.5268,24.34,77,25,8.6,SO,1674438979
437,shenjiamen,29.9576,122.298,9.38,94,100,6.06,CN,1674438980
438,kharitonovo,61.4009,47.4978,-15.41,100,100,0.9,RU,1674438980
439,gundlupet,11.8,76.6833,16.71,80,44,0.68,IN,1674438981
440,tournai,50.6072,3.3893,2.89,95,100,3.15,BE,1674438982
441,banda aceh,5.5577,95.3222,25.52,85,88,3.85,ID,1674438982
442,inuvik,68.3499,-133.7218,-19.44,81,100,3.6,CA,1674438983
443,ontario,34.0633,-117.6509,13.9,59,0,2.06,US,1674438985
444,oranjemund,-28.55,16.4333,17.29,91,50,4.04,NA,1674438985
445,zhangzhou,24.5133,117.6556,15.96,81,97,0.9,CN,1674438986
446,sayyan,15.1718,44.3244,9.54,37,2,0.32,YE,1674438987
447,petropavlovsk-kamchatskiy,53.0452,158.6483,-14.67,66,75,3.0,RU,1674438987
448,de aar,-30.6497,24.0123,20.01,63,8,2.84,ZA,1674438988
449,saquarema,-22.92,-42.5103,22.42,93,79,3.26,BR,1674438988
450,khani,41.9563,42.9566,3.76,61,1,2.58,GE,1674438989
451,twin falls,42.3505,-114.6445,-5.81,86,100,2.57,US,1674438990
452,okhotsk,59.3833,143.3,-24.8,82,45,5.47,RU,1674438990
453,sisimiut,66.9395,-53.6735,-9.81,94,100,3.27,GL,1674438991
454,salalah,17.0151,54.0924,20.06,73,48,1.93,OM,1674438991
455,mezen,65.8522,44.24,-7.26,91,44,3.75,RU,1674438992
456,khasan,42.4308,130.6434,-9.57,58,65,6.28,RU,1674438992
457,luderitz,-26.6481,15.1594,17.87,88,5,6.65,NA,1674438993
458,zeya,53.75,127.2667,-31.37,78,74,0.92,RU,1674438993
459,merauke,-8.4667,140.3333,29.3,71,100,3.73,ID,1674438994
460,chuy,-33.6971,-53.4616,20.58,81,71,2.34,UY,1674438994
461,sulangan,11.1373,123.7228,26.23,80,100,6.07,PH,1674438995
462,san cristobal,7.7669,-72.225,21.1,75,78,1.0,VE,1674438892
463,bonavista,48.6499,-53.1147,-3.59,83,34,7.02,CA,1674438996
464,cabo san lucas,22.8909,-109.9124,20.03,70,68,2.58,MX,1674438996
465,makakilo city,21.3469,-158.0858,25.94,67,8,2.6,US,1674438997
466,palmer,42.1584,-72.3287,1.62,86,100,2.06,US,1674438844
467,dingle,10.9995,122.6711,26.03,84,100,6.28,PH,1674438997
468,toledo,39.8333,-4.0,2.95,60,0,3.07,ES,1674438819
469,mecca,21.4267,39.8261,22.01,76,0,1.49,SA,1674438805
470,lasa,46.6166,10.7002,-2.58,73,98,1.62,IT,1674438998
471,itarema,-2.9248,-39.9167,25.3,85,75,4.79,BR,1674438999
472,ponta delgada,37.7333,-25.6667,14.4,94,75,4.12,PT,1674438999
473,abalak,58.1286,68.5944,-11.38,97,100,3.11,RU,1674439000
474,college,64.8569,-147.8028,-27.82,98,16,1.14,US,1674439000
475,san patricio,28.017,-97.5169,16.58,38,0,4.19,US,1674439001
476,gosainganj,26.5833,82.3833,15.7,60,78,1.97,IN,1674439001
477,seoul,37.5683,126.9778,1.76,72,0,2.06,KR,1674438732
478,strezhevoy,60.7333,77.5889,-11.84,96,100,2.77,RU,1674439002
479,show low,34.2542,-110.0298,2.16,42,0,6.69,US,1674438888
480,champerico,14.3,-91.9167,25.91,74,4,3.1,GT,1674439003
481,green river,41.5286,-109.4662,-12.23,68,100,0.45,US,1674439003
482,constitucion,-35.3333,-72.4167,15.25,85,0,6.23,CL,1674439004
483,belle fourche,44.6714,-103.8522,2.81,76,100,4.49,US,1674439004
484,trelaze,47.45,-0.4667,1.14,87,100,3.09,FR,1674439005
485,kushmurun,52.4503,64.6311,-11.15,91,100,2.08,KZ,1674439005
486,singaparna,-7.3515,108.111,26.74,73,98,0.49,ID,1674439006
487,kaduqli,11.0167,29.7167,20.7,14,6,5.11,SD,1674439006
488,alihe,50.5667,123.7167,-31.16,83,100,1.79,CN,1674439007
489,la macarena,2.1837,-73.7849,23.81,69,100,0.97,CO,1674439008
490,los llanos de aridane,28.6585,-17.9182,16.86,80,100,9.26,ES,1674439008
491,tual,-5.6667,132.75,27.25,80,100,7.23,ID,1674439009
492,sakaraha,-22.9,44.5333,23.5,72,100,6.44,MG,1674439009
493,atambua,-9.1061,124.8925,26.77,67,93,0.42,ID,1674439010
494,bogdanovich,56.7803,62.0494,-11.32,91,65,4.44,RU,1674439010
495,alofi,-19.0595,-169.9187,30.94,66,12,5.14,NU,1674439011
496,arys,42.4252,68.795,-12.93,95,9,1.58,KZ,1674439011
497,sungaipenuh,-2.0833,101.3833,19.1,96,100,0.62,ID,1674439012
498,marsa matruh,31.3525,27.2453,14.33,73,0,0.87,EG,1674439012
499,tigil,57.8,158.6667,-23.68,88,26,1.88,RU,1674439013
500,roebourne,-20.7833,117.1333,31.82,47,20,1.64,AU,1674439013
501,shemursha,54.8866,47.5189,-11.73,92,100,1.95,RU,1674439014
502,maputo,-25.9653,32.5892,25.82,78,40,2.06,MZ,1674438732
503,saint-joseph,-21.3667,55.6167,23.21,86,100,1.24,RE,1674439014
504,svobodnyy,51.4,128.1333,-29.49,87,100,3.81,RU,1674439015
505,phayao,19.25,100.25,20.91,42,9,0.48,TH,1674439015
506,praya,14.9215,-23.5087,20.3,64,20,4.12,CV,1674439016
507,piacabucu,-10.4056,-36.4344,26.09,83,85,5.41,BR,1674439016
508,nishihara,26.1842,127.7558,20.81,91,75,2.06,JP,1674439017
509,lima,-12.0432,-77.0282,24.39,74,0,4.12,PE,1674438363
510,ewa beach,21.3156,-158.0072,27.97,58,0,6.69,US,1674438725
511,hualmay,-11.0964,-77.6139,21.67,80,100,4.07,PE,1674439008
512,kedrovyy,56.1667,91.8167,-17.77,75,100,4.08,RU,1674439018
513,bandarbeyla,9.4942,50.8122,22.98,73,55,6.42,SO,1674439019
514,gravdal,68.1214,13.5031,5.23,80,70,15.26,NO,1674439019
515,yar-sale,66.8333,70.8333,-7.77,95,100,4.17,RU,1674439020
516,tongliao,43.6125,122.2653,-21.61,31,32,7.85,CN,1674439020
517,naze,28.3667,129.4833,17.51,75,63,6.15,JP,1674439021
518,wattegama,6.7989,81.4808,22.98,90,92,1.63,LK,1674439021
519,ketchikan,55.3422,-131.6461,1.26,93,100,6.17,US,1674439018
520,mackay,-21.15,149.2,32.05,67,51,4.3,AU,1674439022
521,sitka,57.0531,-135.33,2.05,90,100,5.25,US,1674439023
522,englewood,39.6478,-104.9878,-0.2,67,99,1.86,US,1674439024
523,benjamin constant,-4.3831,-70.0311,24.07,98,99,0.82,BR,1674439024
524,itaituba,-4.2761,-55.9836,22.97,98,100,0.46,BR,1674439025
525,majene,-3.5403,118.9707,27.7,73,100,0.91,ID,1674439026
526,airai,-8.9266,125.4092,19.73,72,100,0.48,TL,1674439026
527,biak,-0.9131,122.8766,27.18,72,100,0.77,ID,1674439027
528,salvador,13.8333,-88.9167,21.7,75,5,0.71,SV,1674439028
529,nemuro,43.3236,145.575,-6.13,57,13,5.63,JP,1674439028
530,santa maria,-29.6842,-53.8069,24.61,65,0,1.03,BR,1674438876
531,novoorsk,51.381,58.9813,-10.64,78,100,2.87,RU,1674439029
532,tsiroanomandidy,-18.7667,46.0333,19.28,97,100,2.6,MG,1674439030
533,krasnoarmeysk,51.0239,45.6969,-13.07,90,95,1.77,RU,1674439031
534,bonfim,3.0833,-59.95,25.24,74,62,4.5,BR,1674439031
535,kokopo,-4.352,152.2633,29.61,63,100,2.51,PG,1674439032
536,moose factory,51.2585,-80.6094,-7.0,79,81,1.54,CA,1674439033
537,albacete,38.8333,-2.0,0.1,64,0,2.57,ES,1674439034
538,vestmanna,62.1564,-7.1664,5.51,87,100,4.63,FO,1674439034
539,isangel,-19.55,169.2667,30.06,84,40,1.03,VU,1674439035
540,dudinka,69.4058,86.1778,-31.27,99,54,2.07,RU,1674439035
541,puerto maldonado,-12.6,-69.1833,23.61,89,9,1.33,PE,1674439036
542,sturgis,41.7992,-85.4192,-0.11,100,100,1.54,US,1674439037
543,inverell,-29.7833,151.1167,27.31,45,71,1.79,AU,1674439037
544,magugu,-4.0167,35.7667,18.27,87,100,0.94,TZ,1674439038
545,samut sakhon,13.5833,100.3,25.57,38,6,2.68,TH,1674439039
546,sao joao da barra,-21.6403,-41.0511,23.73,91,98,1.2,BR,1674439039
547,harer,9.3094,42.1258,12.83,57,39,0.89,ET,1674439040
548,lebu,-37.6167,-73.65,14.9,92,2,4.59,CL,1674439040
549,xacmaz,41.4635,48.806,2.35,78,6,1.42,AZ,1674439041
550,zhangye,38.9342,100.4517,-15.36,57,100,5.12,CN,1674439042
551,nueva loja,0.0847,-76.8828,22.82,82,73,1.01,EC,1674439042
552,matagami,49.7502,-77.6328,-3.94,93,100,2.06,CA,1674439044
553,esik,43.3552,77.4525,-18.32,61,34,3.74,KZ,1674439046
554,zarautz,43.2844,-2.1699,5.41,75,100,2.69,ES,1674439047
555,flinders,-34.5833,150.8552,22.36,64,55,3.39,AU,1674439047
556,loudi,27.7344,111.9944,6.7,78,100,2.65,CN,1674439048
557,pombia,45.653,8.6336,2.79,74,0,2.06,IT,1674439049
558,umm lajj,25.0213,37.2685,20.46,57,37,3.66,SA,1674439049
559,surt,31.2089,16.5887,13.54,33,0,2.82,LY,1674439050
560,karratha,-20.7377,116.8463,31.59,48,49,1.32,AU,1674439050
561,ulverstone,-41.15,146.1667,21.79,65,14,3.83,AU,1674438853
562,camopi,3.1655,-52.3158,21.38,99,100,1.05,GF,1674439051
563,saint-pierre,-21.3393,55.4781,23.82,83,75,2.57,RE,1674439052
564,malartic,48.1335,-78.1328,-2.94,98,74,1.36,CA,1674439052
565,yenangyaung,20.4667,94.8833,20.54,44,35,2.39,MM,1674439053
566,prado,-17.3411,-39.2208,25.19,90,100,4.8,BR,1674439053
567,tayu,-6.5397,111.0518,26.75,83,100,0.37,ID,1674439054
568,arlit,18.7369,7.3853,20.15,13,0,2.6,NE,1674439054
569,quelimane,-17.8786,36.8883,27.97,78,75,2.57,MZ,1674439055
570,vanimo,-2.6741,141.3028,27.6,79,96,0.44,PG,1674439055
571,kobayashi,31.9833,130.9833,10.43,97,99,1.14,JP,1674439056
572,tacuarembo,-31.7333,-55.9833,25.01,46,0,5.94,UY,1674438926
573,solnechnyy,50.7214,136.6319,-28.21,94,95,1.97,RU,1674439056
574,ipixuna,-1.7625,-48.8043,22.77,98,61,1.63,BR,1674439057
575,kenora,49.8167,-94.4337,-9.46,92,40,5.14,CA,1674439057
576,talaya,61.3833,152.75,-30.81,94,100,3.37,RU,1674439058
577,kiunga,-6.1219,141.2906,27.61,74,99,1.0,PG,1674439058
